[
  {
    "id": "osm_node_312514905",
    "name": "Dennigkofen I",
    "lat": 46.9518813,
    "lng": 7.4890475,
    "address": "Dennigkofenweg 197",
    "type": "Kindergarten"
  },
  {
    "id": "osm_node_614844434",
    "name": "Kindergarten Wankdorf",
    "lat": 46.9632021,
    "lng": 7.4620302,
    "address": "",
    "type": "Kindergarten"
  },
  {
    "id": "osm_node_620033325",
    "name": "Kindergärten Lorraine 1 + 2",
    "lat": 46.959418,
    "lng": 7.4457196,
    "address": "",
    "type": "Kindergarten"
  },
  {
    "id": "osm_node_1615247146",
    "name": "Unbekannte Schule",
    "lat": 46.9401281,
    "lng": 7.4783943,
    "address": "Jupiterstrasse 2",
    "type": "Kindergarten"
  },
  {
    "id": "osm_node_1763606661",
    "name": "Kindergarten Sulgenbach",
    "lat": 46.9396182,
    "lng": 7.4341023,
    "address": "",
    "type": "Kindergarten"
  },
  {
    "id": "osm_node_2293072667",
    "name": "Kindergarten Breitenrain I, II und III",
    "lat": 46.9592745,
    "lng": 7.449093,
    "address": "",
    "type": "Kindergarten"
  },
  {
    "id": "osm_node_2394363807",
    "name": "Kids & Co Wankdorf",
    "lat": 46.967153,
    "lng": 7.4605191,
    "address": "",
    "type": "Kindergarten"
  },
  {
    "id": "osm_node_2925703788",
    "name": "Kindergarten Stöckacker",
    "lat": 46.9450622,
    "lng": 7.3993477,
    "address": "",
    "type": "Kindergarten"
  },
  {
    "id": "osm_node_3092144682",
    "name": "Kindergarten Egelsee 1",
    "lat": 46.9438712,
    "lng": 7.4651414,
    "address": "",
    "type": "Kindergarten"
  },
  {
    "id": "osm_node_3092165929",
    "name": "Kindergarten Egelsee 2",
    "lat": 46.9447538,
    "lng": 7.4664556,
    "address": "",
    "type": "Kindergarten"
  },
  {
    "id": "osm_node_3092204274",
    "name": "Kindergarten Florastrasse",
    "lat": 46.9431755,
    "lng": 7.4543272,
    "address": "Florastrasse 11",
    "type": "Kindergarten"
  },
  {
    "id": "osm_node_3226157173",
    "name": "Dennigkofen II",
    "lat": 46.9517101,
    "lng": 7.4888515,
    "address": "Dennigkofenweg 197",
    "type": "Kindergarten"
  },
  {
    "id": "osm_node_3504753362",
    "name": "Kindergarten Schlossmatte",
    "lat": 46.943436,
    "lng": 7.4139125,
    "address": "Schlossmattstrasse 7",
    "type": "Kindergarten"
  },
  {
    "id": "osm_node_3504792314",
    "name": "Kindergarten Brunnenhaus",
    "lat": 46.9463345,
    "lng": 7.4267395,
    "address": "Brunnmattstrasse 10",
    "type": "Kindergarten"
  },
  {
    "id": "osm_node_4092269070",
    "name": "Kindergarten Hochfeld I+II",
    "lat": 46.9573039,
    "lng": 7.430067,
    "address": "",
    "type": "Kindergarten"
  },
  {
    "id": "osm_node_4454976389",
    "name": "Unbekannte Schule",
    "lat": 46.9386239,
    "lng": 7.4220578,
    "address": "",
    "type": "Kindergarten"
  },
  {
    "id": "osm_node_5018206183",
    "name": "Kindertagesstätte Tabaluga",
    "lat": 46.9296621,
    "lng": 7.4505864,
    "address": "Seftigenstrasse 235",
    "type": "Kindergarten"
  },
  {
    "id": "osm_node_5035234326",
    "name": "Schulhaus Wyssloch Modul",
    "lat": 46.9450068,
    "lng": 7.4670098,
    "address": "Egelgasse 29",
    "type": "Primarschule"
  },
  {
    "id": "osm_node_5269914797",
    "name": "Kinderhaus Ginkgo",
    "lat": 46.9520636,
    "lng": 7.4645708,
    "address": "",
    "type": "Kindergarten"
  },
  {
    "id": "osm_node_5286301710",
    "name": "KITA Yeladim",
    "lat": 46.9372233,
    "lng": 7.4370911,
    "address": "",
    "type": "Kindergarten"
  },
  {
    "id": "osm_node_5351667713",
    "name": "Waldkindergarten Chindertroum",
    "lat": 46.9359457,
    "lng": 7.4252225,
    "address": "Schwarzenburgstrasse 59",
    "type": "Kindergarten"
  },
  {
    "id": "osm_node_5351667714",
    "name": "Waldspielgruppe Chindertroum",
    "lat": 46.9360153,
    "lng": 7.4252675,
    "address": "Schwarzenburgstrasse 59",
    "type": "Kindergarten"
  },
  {
    "id": "osm_node_5506404217",
    "name": "Kindergarten Schosshalde I",
    "lat": 46.9446304,
    "lng": 7.4616764,
    "address": "Kleiner Muristalden 40",
    "type": "Kindergarten"
  },
  {
    "id": "osm_node_5506404220",
    "name": "Kindegarten Schosshalde II",
    "lat": 46.9445906,
    "lng": 7.4617556,
    "address": "Kleiner Muristalden 40",
    "type": "Kindergarten"
  },
  {
    "id": "osm_node_5540295412",
    "name": "Montessori Kinderhaus",
    "lat": 46.9562578,
    "lng": 7.4452031,
    "address": "",
    "type": "Kindergarten"
  },
  {
    "id": "osm_node_5605370633",
    "name": "Kindergarten Dalmaziquai",
    "lat": 46.9382464,
    "lng": 7.4451035,
    "address": "Dalmaziquai 91",
    "type": "Kindergarten"
  },
  {
    "id": "osm_node_5625387605",
    "name": "Kindergarten Marzili I",
    "lat": 46.9421207,
    "lng": 7.438561,
    "address": "",
    "type": "Kindergarten"
  },
  {
    "id": "osm_node_5625387606",
    "name": "Kindergarten Marzili II",
    "lat": 46.9422436,
    "lng": 7.4387225,
    "address": "Sulgeneckstrasse 59c",
    "type": "Kindergarten"
  },
  {
    "id": "osm_node_5644386702",
    "name": "Kindergarten Dählhölzli",
    "lat": 46.9368419,
    "lng": 7.4497173,
    "address": "",
    "type": "Kindergarten"
  },
  {
    "id": "osm_node_5766182323",
    "name": "Kindergarten Neufeld II",
    "lat": 46.9556803,
    "lng": 7.4299307,
    "address": "",
    "type": "Kindergarten"
  },
  {
    "id": "osm_node_5766182324",
    "name": "Kindergarten Neufeld I",
    "lat": 46.9555776,
    "lng": 7.4295947,
    "address": "",
    "type": "Kindergarten"
  },
  {
    "id": "osm_node_5939907501",
    "name": "Schulhaus Dorf",
    "lat": 46.943119,
    "lng": 7.3903327,
    "address": "",
    "type": "Primarschule"
  },
  {
    "id": "osm_node_6184536334",
    "name": "Schwabgut 1 + 2",
    "lat": 46.9445522,
    "lng": 7.3956543,
    "address": "",
    "type": "Kindergarten"
  },
  {
    "id": "osm_node_6387637127",
    "name": "Kindergarten Wandermatte",
    "lat": 46.9299465,
    "lng": 7.4524349,
    "address": "",
    "type": "Kindergarten"
  },
  {
    "id": "osm_node_6704336267",
    "name": "Kindergarten Tscharnergut 2",
    "lat": 46.9480014,
    "lng": 7.3863688,
    "address": "",
    "type": "Kindergarten"
  },
  {
    "id": "osm_node_6744759359",
    "name": "Kindergarten Spitalacker 1",
    "lat": 46.9555142,
    "lng": 7.4549752,
    "address": "",
    "type": "Kindergarten"
  },
  {
    "id": "osm_node_6744759360",
    "name": "Kindergarten Spitalacker 2",
    "lat": 46.9554472,
    "lng": 7.4552052,
    "address": "",
    "type": "Kindergarten"
  },
  {
    "id": "osm_node_6747787799",
    "name": "Kindergarten Tellstrasse 1",
    "lat": 46.9623945,
    "lng": 7.4577752,
    "address": "",
    "type": "Kindergarten"
  },
  {
    "id": "osm_node_6747787800",
    "name": "Kindergarten Tellstrasse 2",
    "lat": 46.9625922,
    "lng": 7.4574951,
    "address": "",
    "type": "Kindergarten"
  },
  {
    "id": "osm_node_10184244312",
    "name": "Kindergarten Bümpliz Nord",
    "lat": 46.9449702,
    "lng": 7.3931134,
    "address": "Schwabstrasse 10",
    "type": "Kindergarten"
  },
  {
    "id": "osm_node_11497543706",
    "name": "Basisstufen Stationsstrasse",
    "lat": 46.9304893,
    "lng": 7.417412,
    "address": "Stationsstrasse 40",
    "type": "Kindergarten"
  },
  {
    "id": "osm_way_32962055",
    "name": "Schulstandort Bethlehemacker",
    "lat": 46.9503153,
    "lng": 7.387302,
    "address": "",
    "type": "Primarschule"
  },
  {
    "id": "osm_way_40607192",
    "name": "Gewerbeschule",
    "lat": 46.9547028,
    "lng": 7.4448101,
    "address": "",
    "type": "Primarschule"
  },
  {
    "id": "osm_way_40992510",
    "name": "Unbekannte Schule",
    "lat": 46.9381295,
    "lng": 7.4450767,
    "address": "",
    "type": "Kindergarten"
  },
  {
    "id": "osm_way_42350743",
    "name": "Kindergarten Elfenau",
    "lat": 46.9346098,
    "lng": 7.4655558,
    "address": "",
    "type": "Kindergarten"
  },
  {
    "id": "osm_way_42398967",
    "name": "Unbekannte Schule",
    "lat": 46.9345451,
    "lng": 7.4656041,
    "address": "",
    "type": "Kindergarten"
  },
  {
    "id": "osm_way_43627452",
    "name": "Kindergarten Burgfeld",
    "lat": 46.9566719,
    "lng": 7.4772255,
    "address": "",
    "type": "Kindergarten"
  },
  {
    "id": "osm_way_44016365",
    "name": "Kindergärten Haspelweg I + II",
    "lat": 46.9504655,
    "lng": 7.4665605,
    "address": "Haspelweg 49",
    "type": "Kindergarten"
  },
  {
    "id": "osm_way_44104513",
    "name": "Kindergarten Baumgarten",
    "lat": 46.9536564,
    "lng": 7.4671591,
    "address": "",
    "type": "Kindergarten"
  },
  {
    "id": "osm_way_46771481",
    "name": "Kindergarten Spitalacker",
    "lat": 46.9553378,
    "lng": 7.4550549,
    "address": "",
    "type": "Kindergarten"
  },
  {
    "id": "osm_way_48238365",
    "name": "Unbekannte Schule",
    "lat": 46.9624138,
    "lng": 7.4577368,
    "address": "",
    "type": "Kindergarten"
  },
  {
    "id": "osm_way_48407941",
    "name": "Schulstandort Breitfeld/Wankdorf",
    "lat": 46.9636306,
    "lng": 7.4622958,
    "address": "",
    "type": "Primarschule"
  },
  {
    "id": "osm_way_48965754",
    "name": "Kindergarten Wylergut",
    "lat": 46.9645037,
    "lng": 7.4483297,
    "address": "",
    "type": "Kindergarten"
  },
  {
    "id": "osm_way_50058531",
    "name": "Kindergarten Bürengut",
    "lat": 46.9381125,
    "lng": 7.4397767,
    "address": "",
    "type": "Kindergarten"
  },
  {
    "id": "osm_way_52066633",
    "name": "Kinderhaus Vogelflug",
    "lat": 46.9401783,
    "lng": 7.4330606,
    "address": "",
    "type": "Kindergarten"
  },
  {
    "id": "osm_way_52429217",
    "name": "Kindergarten Steinhölzli",
    "lat": 46.934693,
    "lng": 7.4305095,
    "address": "",
    "type": "Kindergarten"
  },
  {
    "id": "osm_way_52873704",
    "name": "Schulstandort Pestalozzi",
    "lat": 46.9401747,
    "lng": 7.4243904,
    "address": "",
    "type": "Primarschule"
  },
  {
    "id": "osm_way_53060898",
    "name": "Heilpädagogische Schule",
    "lat": 46.9410091,
    "lng": 7.4295512,
    "address": "Tscharnerstrasse 10",
    "type": "Primarschule"
  },
  {
    "id": "osm_way_54032928",
    "name": "Kindergarten Bridelstrasse",
    "lat": 46.9396198,
    "lng": 7.4219018,
    "address": "",
    "type": "Kindergarten"
  },
  {
    "id": "osm_way_54936437",
    "name": "Kindergarten Munzingerstrasse 1+2",
    "lat": 46.9410344,
    "lng": 7.422467,
    "address": "",
    "type": "Kindergarten"
  },
  {
    "id": "osm_way_57941068",
    "name": "Unbekannte Schule",
    "lat": 46.9433731,
    "lng": 7.4139409,
    "address": "Schlossmattstrasse",
    "type": "Kindergarten"
  },
  {
    "id": "osm_way_58364161",
    "name": "Kindergarten Steigerhubel",
    "lat": 46.9458748,
    "lng": 7.4128747,
    "address": "",
    "type": "Kindergarten"
  },
  {
    "id": "osm_way_75464676",
    "name": "Tagesschule Länggasse",
    "lat": 46.956524,
    "lng": 7.431292,
    "address": "",
    "type": "Primarschule"
  },
  {
    "id": "osm_way_76092617",
    "name": "Kindergarten Bonstetten",
    "lat": 46.958638,
    "lng": 7.4384992,
    "address": "",
    "type": "Kindergarten"
  },
  {
    "id": "osm_way_92420420",
    "name": "Kindergarten Blinzern",
    "lat": 46.9206274,
    "lng": 7.423103,
    "address": "Adlerweg",
    "type": "Kindergarten"
  },
  {
    "id": "osm_way_94080834",
    "name": "Kleefeld I",
    "lat": 46.9365922,
    "lng": 7.3869793,
    "address": "Rehhagstrasse 41a",
    "type": "Kindergarten"
  },
  {
    "id": "osm_way_94792345",
    "name": "Kindergarten Statthalter",
    "lat": 46.939052,
    "lng": 7.392254,
    "address": "",
    "type": "Kindergarten"
  },
  {
    "id": "osm_way_95838951",
    "name": "Kirchacker II",
    "lat": 46.941564,
    "lng": 7.39925,
    "address": "",
    "type": "Kindergarten"
  },
  {
    "id": "osm_way_95838968",
    "name": "Kirchacker I",
    "lat": 46.9414238,
    "lng": 7.3996685,
    "address": "",
    "type": "Kindergarten"
  },
  {
    "id": "osm_way_96211630",
    "name": "Kindergarten Tscharnergut 1",
    "lat": 46.947952,
    "lng": 7.3879321,
    "address": "",
    "type": "Kindergarten"
  },
  {
    "id": "osm_way_96748976",
    "name": "Kindergarten Winterhalde",
    "lat": 46.9420513,
    "lng": 7.3812871,
    "address": "",
    "type": "Kindergarten"
  },
  {
    "id": "osm_way_217851350",
    "name": "Unbekannte Schule",
    "lat": 46.9438421,
    "lng": 7.4651492,
    "address": "",
    "type": "Kindergarten"
  },
  {
    "id": "osm_way_244224886",
    "name": "Unbekannte Schule",
    "lat": 46.9367693,
    "lng": 7.4499711,
    "address": "",
    "type": "Kindergarten"
  },
  {
    "id": "osm_way_245198156",
    "name": "Kindergarten Horbern I / II",
    "lat": 46.9294757,
    "lng": 7.4863915,
    "address": "Belpstrasse 15",
    "type": "Kindergarten"
  },
  {
    "id": "osm_way_248042655",
    "name": "Kindergarten Sonnenhof",
    "lat": 46.9424152,
    "lng": 7.470826,
    "address": "",
    "type": "Kindergarten"
  },
  {
    "id": "osm_way_251611220",
    "name": "Unbekannte Schule",
    "lat": 46.944715,
    "lng": 7.4664845,
    "address": "",
    "type": "Kindergarten"
  },
  {
    "id": "osm_way_260628674",
    "name": "Schulhaus Markus",
    "lat": 46.9624465,
    "lng": 7.4564761,
    "address": "",
    "type": "Primarschule"
  },
  {
    "id": "osm_way_284262257",
    "name": "Kindergarten Weissenstein I",
    "lat": 46.9367175,
    "lng": 7.4176491,
    "address": "",
    "type": "Kindergarten"
  },
  {
    "id": "osm_way_305844853",
    "name": "Kindergarten Fricktreppe",
    "lat": 46.9463609,
    "lng": 7.4500281,
    "address": "",
    "type": "Kindergarten"
  },
  {
    "id": "osm_way_316491929",
    "name": "Unbekannte Schule",
    "lat": 46.9517718,
    "lng": 7.488983,
    "address": "",
    "type": "Kindergarten"
  },
  {
    "id": "osm_way_317249585",
    "name": "Wabersacker II",
    "lat": 46.9281917,
    "lng": 7.4241729,
    "address": "",
    "type": "Kindergarten"
  },
  {
    "id": "osm_way_340737930",
    "name": "Kindergärten Kirchacker I+II",
    "lat": 46.9414253,
    "lng": 7.3995555,
    "address": "",
    "type": "Kindergarten"
  },
  {
    "id": "osm_way_573306030",
    "name": "Unbekannte Schule",
    "lat": 46.926708,
    "lng": 7.4323407,
    "address": "",
    "type": "Kindergarten"
  },
  {
    "id": "osm_way_589079692",
    "name": "Unbekannte Schule",
    "lat": 46.9422,
    "lng": 7.4386858,
    "address": "",
    "type": "Kindergarten"
  },
  {
    "id": "osm_way_608676593",
    "name": "Neufeld 2 & 3",
    "lat": 46.9556222,
    "lng": 7.4298222,
    "address": "",
    "type": "Kindergarten"
  },
  {
    "id": "osm_way_640961551",
    "name": "Unbekannte Schule",
    "lat": 46.9594174,
    "lng": 7.4455339,
    "address": "",
    "type": "Kindergarten"
  },
  {
    "id": "osm_way_690305580",
    "name": "Kinderhaus Elfenau",
    "lat": 46.9415652,
    "lng": 7.4272833,
    "address": "Hopfenweg 18",
    "type": "Kindergarten"
  },
  {
    "id": "osm_way_734632842",
    "name": "Kindergarten",
    "lat": 46.9519965,
    "lng": 7.390295,
    "address": "Kasparstrasse 15c",
    "type": "Kindergarten"
  },
  {
    "id": "osm_way_1001119101",
    "name": "Kindergarten Gurtenbühl",
    "lat": 46.9293423,
    "lng": 7.4410049,
    "address": "",
    "type": "Kindergarten"
  },
  {
    "id": "osm_way_1001119102",
    "name": "Kindergarten Morillon",
    "lat": 46.9311193,
    "lng": 7.4434776,
    "address": "",
    "type": "Kindergarten"
  },
  {
    "id": "osm_way_1312588871",
    "name": "Unbekannte Schule",
    "lat": 46.947075,
    "lng": 7.416456,
    "address": "",
    "type": "Kindergarten"
  }
]